{
  "version": "0.6",
  "generator": "Overpass API",
  "osm3s": {
    "timestamp_osm_base": "2014-12-16T09:40:02.000Z",
    "timestamp_areas_base": "2014-12-15T21:10:01.000Z",
    "copyright": "The data included in this document is from www.openstreetmap.org. The data is made available under ODbL."
  },
  "elements": [
    {
      "type": "node",
      "id": 299805695,
      "lat": 50.930189,
      "lon": 11.5814365,
      "tags": {
        "addr:city": "Jena",
        "addr:country": "DE",
        "addr:housenumber": "11",
        "addr:postcode": "07743",
        "addr:street": "Wagnergasse",
        "amenity": "bar",
        "contact:website": "http://www.j-kinski.de",
        "cuisine": "vegetarian",
        "diet:vegetarian": "only",
        "name": "Cleanicum",
        "wheelchair": "limited"
      }
    },
    {
      "type": "node",
      "id": 315597188,
      "lat": 50.9294576,
      "lon": 11.5839363,
      "tags": {
        "addr:city": "Jena",
        "addr:country": "DE",
        "addr:housenumber": "27-29",
        "addr:postcode": "07743",
        "addr:street": "Johannisplatz",
        "amenity": "bar",
        "contact:facebook": "https://www.facebook.com/jena.fly",
        "name": "Fly",
        "wheelchair": "no"
      }
    },
    {
      "type": "node",
      "id": 668055144,
      "lat": 50.9262416,
      "lon": 11.58499,
      "tags": {
        "amenity": "bar",
        "contact:website": "http://www.diezel.de",
        "name": "dieVINO Theka",
        "opening_hours": "11:00-20:00",
        "operator": "diezel",
        "shop": "alcohol",
        "wheelchair": "no"
      }
    },
    {
      "type": "node",
      "id": 715525760,
      "lat": 50.9229683,
      "lon": 11.5850667,
      "tags": {
        "amenity": "bar",
        "contact:website": "http://www.derstrand22.de",
        "name": "Der Strand 22"
      }
    },
    {
      "type": "node",
      "id": 1518792808,
      "lat": 50.9286079,
      "lon": 11.5880613,
      "tags": {
        "addr:city": "Jena",
        "addr:country": "DE",
        "addr:housenumber": "5",
        "addr:postcode": "07743",
        "addr:street": "Markt",
        "amenity": "bar",
        "contact:website": "http://www.carlsberg-sportsbar.de/",
        "name": "Carlsberg Sports Bar",
        "opening_hours": "Mo-Th 17:00-24:00; Fr 17:00-01:00; Sa 13:00-02:00; Su 13:00-22:00"
      }
    }
  ]
}